[
    {
      "id": 100,
      "name": "Gynk",
      "category": "gifts",
      "location": {
        "lat": 12.120000,
        "long": 76.680000
      },
      "company": {
        "image": "assets/img/store/store.jpg",
        "country": "Paraguay",
        "email": "dellastephens@gynk.com",
        "phone": "+1 (859) 566-2931",
        "address": "Nanjangud, Mysore, Karnataka, India"
      }
    },
    {
      "id": 101,
      "name": "Quility",
      "category": "gifts",
      "location": {
        "lat": 24.879999,
        "long": 74.629997
      },
      "company": {
        "image": "assets/img/store/store.jpg",
        "country": "Moldova",
        "email": "dellastephens@quility.com",
        "phone": "+1 (893) 539-2250",
        "address": "Chittorgarh, Rajasthan, India"
      }
    },
    {
      "id": 102,
      "name": "Realmo",
      "category": "gifts",
      "location": {
        "lat": 16.994444,
        "long": 73.300003
      },
      "company": {
        "image": "assets/img/store/store.jpg",
        "country": "Malaysia",
        "email": "dellastephens@realmo.com",
        "phone": "+1 (868) 455-2796",
        "address": "Ratnagiri, Maharashtra, India"
      }
    },
    {
      "id": 103,
      "name": "Shopabout",
      "category": "electronics",
      "location": {
        "lat": 19.155001,
        "long": 72.849998
      },
      "company": {
        "image": "assets/img/store/store.jpg",
        "country": "British Indian Ocean Territory",
        "email": "dellastephens@shopabout.com",
        "phone": "+1 (802) 479-2378",
        "address": "Goregaon, Mumbai, Maharashtra, India"
      }
    },
    {
      "id": 104,
      "name": "Kindaloo",
      "category": "beauty",
      "location": {
        "lat": 24.794500,
        "long": 73.055000
      },
      "company": {
        "image": "assets/img/store/store.jpg",
        "country": "Mauritius",
        "email": "dellastephens@kindaloo.com",
        "phone": "+1 (933) 476-3805",
        "address": "Pindwara, Rajasthan, India"
      }
    },
    {
      "id": 105,
      "name": "Protodyne",
      "category": "grocery",
      "location": {
        "lat": 21.250000,
        "long": 81.629997
      },
      "company": {
        "image": "assets/img/store/store.jpg",
        "country": "Western Sahara",
        "email": "dellastephens@protodyne.com",
        "phone": "+1 (954) 481-2924",
        "address": "Raipur, Chhattisgarh, India"
      }
    },
    {
      "id": 106,
      "name": "Xurban",
      "category": "mobiles",
      "location": {
        "lat": 16.166700,
        "long": 74.833298
      },
      "company": {
        "image": "assets/img/store/store.jpg",
        "country": "Tonga",
        "email": "dellastephens@xurban.com",
        "phone": "+1 (924) 534-2156",
        "address": "Gokak, Karnataka, India"
      }
    },
    {
      "id": 107,
      "name": "Pyramia",
      "category": "mobiles",
      "location": {
        "lat": 26.850000,
        "long": 80.949997
      },
      "company": {
        "image": "assets/img/store/store.jpg",
        "country": "Slovak Republic",
        "email": "dellastephens@pyramia.com",
        "phone": "+1 (864) 495-3742",
        "address": "Lucknow, Uttar Pradesh, India"
      }
    },
    {
      "id": 108,
      "name": "Anixang",
      "category": "beauty",
      "location": {
        "lat": 28.679079,
        "long": 77.069710
      },
      "company": {
        "image": "assets/img/store/store.jpg",
        "country": "Slovenia",
        "email": "dellastephens@anixang.com",
        "phone": "+1 (812) 456-2164",
        "address": "Delhi, India"
      }
    },
    {
      "id": 109,
      "name": "Tingles",
      "category": "mobiles",
      "location": {
        "lat": 19.076090,
        "long": 72.877426
      },
      "company": {
        "image": "assets/img/store/store.jpg",
        "country": "Benin",
        "email": "dellastephens@tingles.com",
        "phone": "+1 (840) 497-2567",
        "address": "Mumbai, Maharashtra, India"
      }
    },
    {
      "id": 110,
      "name": "Zilch",
      "category": "grocery",
      "location": {
        "lat": 14.167040,
        "long": 75.040298
      },
      "company": {
        "image": "assets/img/store/store.jpg",
        "country": "Oman",
        "email": "dellastephens@zilch.com",
        "phone": "+1 (861) 430-2225",
        "address": "Sagar, Karnataka, India"
      }
    },
    {
      "id": 111,
      "name": "Comfirm",
      "category": "beauty",
      "location": {
        "lat": 26.540457,
        "long": 88.719391
      },
      "company": {
        "image": "assets/img/store/store.jpg",
        "country": "Brunei Darussalam",
        "email": "dellastephens@comfirm.com",
        "phone": "+1 (941) 556-2760",
        "address": "Jalpaiguri, West Bengal, India"
      }
    },
    {
      "id": 112,
      "name": "Acrodance",
      "category": "mobiles",
      "location": {
        "lat": 24.633568,
        "long": 87.849251
      },
      "company": {
        "image": "assets/img/store/store.jpg",
        "country": "Trinidad and Tobago",
        "email": "dellastephens@acrodance.com",
        "phone": "+1 (815) 588-3731",
        "address": "Pakur, Jharkhand, India"
      }
    },
    {
      "id": 113,
      "name": "Quizmo",
      "category": "mobiles",
      "location": {
        "lat": 28.440554,
        "long": 74.493011
      },
      "company": {
        "image": "assets/img/store/store.jpg",
        "country": "Madagascar",
        "email": "dellastephens@quizmo.com",
        "phone": "+1 (830) 579-3391",
        "address": "Sardarshahar, Rajasthan, India"
      }
    },
    {
      "id": 114,
      "name": "Jamnation",
      "category": "health",
      "location": {
        "lat": 24.882618,
        "long": 72.858894
      },
      "company": {
        "image": "assets/img/store/store.jpg",
        "country": "Zambia",
        "email": "dellastephens@jamnation.com",
        "phone": "+1 (804) 400-3537",
        "address": "Sirohi, Rajasthan, India"
      }
    },
    {
      "id": 115,
      "name": "Omnigog",
      "category": "grocery",
      "location": {
        "lat": 16.779877,
        "long": 74.556374
      },
      "company": {
        "image": "assets/img/store/store.jpg",
        "country": "Chile",
        "email": "dellastephens@omnigog.com",
        "phone": "+1 (969) 594-3757",
        "address": "Jaysingpur, Maharashtra, India"
      }
    },
    {
      "id": 116,
      "name": "Icology",
      "category": "grocery",
      "location": {
        "lat": 12.715035,
        "long": 77.281296
      },
      "company": {
        "image": "assets/img/store/store.jpg",
        "country": "Solomon Islands",
        "email": "dellastephens@icology.com",
        "phone": "+1 (967) 425-2879",
        "address": "Ramanagara, Karnataka, India"
      }
    },
    {
      "id": 117,
      "name": "Plasmosis",
      "category": "electronics",
      "location": {
        "lat": 13.432515,
        "long": 77.727478
      },
      "company": {
        "image": "assets/img/store/store.jpg",
        "country": "Nicaragua",
        "email": "dellastephens@plasmosis.com",
        "phone": "+1 (993) 589-2588",
        "address": "Chikkaballapura, Karnataka, India"
      }
    },
    {
      "id": 118,
      "name": "Obliq",
      "category": "electronics",
      "location": {
        "lat": 12.651805,
        "long": 77.208946
      },
      "company": {
        "image": "assets/img/store/store.jpg",
        "country": "S. Georgia and S. Sandwich Isls.",
        "email": "dellastephens@obliq.com",
        "phone": "+1 (912) 568-3401",
        "address": "Channapatna, Karnataka, India"
      }
    },
    {
      "id": 119,
      "name": "Bolax",
      "category": "gifts",
      "location": {
        "lat": 22.728392,
        "long": 71.637077
      },
      "company": {
        "image": "assets/img/store/store.jpg",
        "country": "Macau",
        "email": "dellastephens@bolax.com",
        "phone": "+1 (857) 482-3658",
        "address": "Surendranagar, Gujarat, India"
      }
    },
    {
      "id": 120,
      "name": "Hydrocom",
      "category": "electronics",
      "location": {
        "lat": 9.383452,
        "long": 76.574059
      },
      "company": {
        "image": "assets/img/store/store.jpg",
        "country": "Angola",
        "email": "dellastephens@hydrocom.com",
        "phone": "+1 (832) 411-2938",
        "address": "Thiruvalla, Kerala, India"
      }
    },
    {
      "id": 121,
      "name": "Zoid",
      "category": "grocery",
      "location": {
        "lat": 14.623801,
        "long": 75.621788
      },
      "company": {
        "image": "assets/img/store/store.jpg",
        "country": "Reunion",
        "email": "dellastephens@zoid.com",
        "phone": "+1 (977) 487-3378",
        "address": "Ranebennur, Karnataka, India"
      }
    },
    {
      "id": 122,
      "name": "Pulze",
      "category": "mobiles",
      "location": {
        "lat": 10.925440,
        "long": 79.838005
      },
      "company": {
        "image": "assets/img/store/store.jpg",
        "country": "Kenya",
        "email": "dellastephens@pulze.com",
        "phone": "+1 (974) 426-3841",
        "address": "Karaikal, Puducherry, India"
      }
    },
    {
      "id": 123,
      "name": "Softmicro",
      "category": "electronics",
      "location": {
        "lat": 15.852792,
        "long": 74.498703
      },
      "company": {
        "image": "assets/img/store/store.jpg",
        "country": "Croatia (Hrvatska)",
        "email": "dellastephens@softmicro.com",
        "phone": "+1 (880) 431-3931",
        "address": "Belgaum, Karnataka, India"
      }
    },
    {
      "id": 124,
      "name": "Codact",
      "category": "gifts",
      "location": {
        "lat": 19.354979,
        "long": 84.986732
      },
      "company": {
        "image": "assets/img/store/store.jpg",
        "country": "Cote D'Ivoire (Ivory Coast)",
        "email": "dellastephens@codact.com",
        "phone": "+1 (959) 513-3739",
        "address": "Chatrapur, Odisha, India"
      }
    },
    {
      "id": 125,
      "name": "Oceanica",
      "category": "mobiles",
      "location": {
        "lat": 23.905445,
        "long": 87.524620
      },
      "company": {
        "image": "assets/img/store/store.jpg",
        "country": "US Minor Outlying Islands",
        "email": "dellastephens@oceanica.com",
        "phone": "+1 (962) 467-2831",
        "address": "Suri, West Bengal, India"
      }
    },
    {
      "id": 126,
      "name": "Quonata",
      "category": "beauty",
      "location": {
        "lat": 20.296059,
        "long": 85.824539
      },
      "company": {
        "image": "assets/img/store/store.jpg",
        "country": "Colombia",
        "email": "dellastephens@quonata.com",
        "phone": "+1 (829) 471-2428",
        "address": "Bhubaneswar, Odisha, India"
      }
    },
    {
      "id": 127,
      "name": "Duoflex",
      "category": "grocery",
      "location": {
        "lat": 21.105001,
        "long": 71.771645
      },
      "company": {
        "image": "assets/img/store/store.jpg",
        "country": "Greenland",
        "email": "dellastephens@duoflex.com",
        "phone": "+1 (801) 534-3392",
        "address": "Mahuva, Gujarat, India"
      }
    },
    {
      "id": 128,
      "name": "Kengen",
      "category": "electronics",
      "location": {
        "lat": 30.172716,
        "long": 77.299492
      },
      "company": {
        "image": "assets/img/store/store.jpg",
        "country": "Kiribati",
        "email": "dellastephens@kengen.com",
        "phone": "+1 (838) 576-3453",
        "address": "Jagadhri, Haryana, India"
      }
    },
    {
      "id": 129,
      "name": "Biotica",
      "category": "gifts",
      "location": {
        "lat": 25.477585,
        "long": 85.709091
      },
      "company": {
        "image": "assets/img/store/store.jpg",
        "country": "Grenada",
        "email": "dellastephens@biotica.com",
        "phone": "+1 (955) 565-3775",
        "address": "Barh, Bihar, India"
      }
    },
    {
      "id": 130,
      "name": "Bunga",
      "category": "beauty",
      "location": {
        "lat": 21.045521,
        "long": 75.801094
      },
      "company": {
        "image": "assets/img/store/store.jpg",
        "country": "Kyrgyzstan",
        "email": "dellastephens@bunga.com",
        "phone": "+1 (989) 527-3277",
        "address": "Bhusawal, Maharashtra, India"
      }
    },
    {
      "id": 131,
      "name": "Remold",
      "category": "electronics",
      "location": {
        "lat": 26.491890,
        "long": 89.527100
      },
      "company": {
        "image": "assets/img/store/store.jpg",
        "country": "Tanzania",
        "email": "dellastephens@remold.com",
        "phone": "+1 (945) 591-2410",
        "address": "Alipurduar, West Bengal, India"
      }
    },
    {
      "id": 132,
      "name": "Lovepad",
      "category": "health",
      "location": {
        "lat": 8.893212,
        "long": 76.614143
      },
      "company": {
        "image": "assets/img/store/store.jpg",
        "country": "Luxembourg",
        "email": "dellastephens@lovepad.com",
        "phone": "+1 (900) 454-3652",
        "address": "Kollam, Kerala, India"
      }
    },
    {
      "id": 133,
      "name": "Gracker",
      "category": "grocery",
      "location": {
        "lat": 22.430889,
        "long": 87.321487
      },
      "company": {
        "image": "assets/img/store/store.jpg",
        "country": "Guyana",
        "email": "dellastephens@gracker.com",
        "phone": "+1 (824) 519-2154",
        "address": "Medinipur, West Bengal, India"
      }
    },
    {
      "id": 134,
      "name": "Apextri",
      "category": "electronics",
      "location": {
        "lat": 23.849325,
        "long": 72.126625
      },
      "company": {
        "image": "assets/img/store/store.jpg",
        "country": "Ireland",
        "email": "dellastephens@apextri.com",
        "phone": "+1 (871) 478-2112",
        "address": "Patan, Gujarat, India"
      }
    },
    {
      "id": 135,
      "name": "Emtrak",
      "category": "mobiles",
      "location": {
        "lat": 11.786253,
        "long": 77.800781
      },
      "company": {
        "image": "assets/img/store/store.jpg",
        "country": "Canada",
        "email": "dellastephens@emtrak.com",
        "phone": "+1 (989) 494-3382",
        "address": "Mettur, Tamil Nadu, India"
      }
    },
    {
      "id": 136,
      "name": "Genesynk",
      "category": "mobiles",
      "location": {
        "lat": 13.583274,
        "long": 76.540154
      },
      "company": {
        "image": "assets/img/store/store.jpg",
        "country": "Belgium",
        "email": "dellastephens@genesynk.com",
        "phone": "+1 (947) 473-3619",
        "address": "Huliyar, Karnataka, India"
      }
    },
    {
      "id": 137,
      "name": "Zensure",
      "category": "electronics",
      "location": {
        "lat": 14.530457,
        "long": 75.801094
      },
      "company": {
        "image": "assets/img/store/store.jpg",
        "country": "Netherlands Antilles",
        "email": "dellastephens@zensure.com",
        "phone": "+1 (830) 525-2676",
        "address": "Harihar, Karnataka, India"
      }
    },
    {
      "id": 138,
      "name": "Waab",
      "category": "beauty",
      "location": {
        "lat": 18.901457,
        "long": 73.176132
      },
      "company": {
        "image": "assets/img/store/store.jpg",
        "country": "Bouvet Island",
        "email": "dellastephens@waab.com",
        "phone": "+1 (812) 542-2496",
        "address": "Rasayani, Maharashtra, India"
      }
    },
    {
      "id": 139,
      "name": "Anocha",
      "category": "beauty",
      "location": {
        "lat": 22.960510,
        "long": 88.567406
      },
      "company": {
        "image": "assets/img/store/store.jpg",
        "country": "Guinea-Bissau",
        "email": "dellastephens@anocha.com",
        "phone": "+1 (995) 444-2045",
        "address": "Haringhata, West Bengal, India"
      }
    },
    {
      "id": 140,
      "name": "Caxt",
      "category": "electronics",
      "location": {
        "lat": 15.756595,
        "long": 76.192696
      },
      "company": {
        "image": "assets/img/store/store.jpg",
        "country": "Guadeloupe",
        "email": "dellastephens@caxt.com",
        "phone": "+1 (908) 448-3179",
        "address": "Kushtagi, Karnataka, India"
      }
    },
    {
      "id": 141,
      "name": "Frolix",
      "category": "gifts",
      "location": {
        "lat": 22.656015,
        "long": 86.352882
      },
      "company": {
        "image": "assets/img/store/store.jpg",
        "country": "Rwanda",
        "email": "dellastephens@frolix.com",
        "phone": "+1 (920) 551-2154",
        "address": "Jadugora, Jharkhand, India"
      }
    }
  ]